{
  "HCM": {
    "name": "Ho Chi Minh",
    "capital": "Banh My",
    "lat": "10.780",
    "long": "106.690"
  },
  "TN": {
    "name": "Tay Ninh",
    "capital": "Banh Trang",
    "lat": "11.290",
    "long": "106.130"
  },
  "BP": {
    "name": "Binh Phuoc",
    "capital": "Banh Da",
    "lat": "11.539",
    "long": "106.900"
  },
  "DN": {
    "name": "Dong Nai",
    "capital": "Banh ",
    "lat": "10.950",
    "long": "106.820"
  },
  "VT": {
    "name": "Vung Tau",
    "capital": "Yaour",
    "lat": "10.350",
    "long": "107.080"
  },
  "BT": {
    "name": "Binh Thuan",
    "capital": "Sua Gao",
    "lat": "11.317",
    "long": "108.657"
  },
  "NT": {
    "name": "Ninh Thuan",
    "capital": "Sua bo",
    "lat": "11.705",
    "long": "108.869"
  },
  "LD": {
    "name": "Lam Dong",
    "capital": "Sua dau ",
    "lat": "11.750",
    "long": "108.096"
  },
  "DN": {
    "name": "Dak Nong",
    "capital": "Thit heo",
    "lat": "12.229",
    "long": "107.685"
  },
  "DL": {
    "name": "Dak Lak",
    "capital": "Ca chua",
    "lat": "12.710",
    "long": "108.237"
  },
  "KH": {
    "name": "Khanh Hoa",
    "capital": "Hai san",
    "lat": "12.335",
    "long": "109.029"
  },
  "PY": {
    "name": "Phu Yen",
    "capital": "ga",
    "lat": "13.171",
    "long": "109.059"
  },
  "GL": {
    "name": "Gia Lai",
    "capital": "Bong da",
    "lat": "13.983",
    "long": "108"
  },
  "BD": {
    "name": "Binh Dinh",
    "capital": "Dep",
    "lat": "14.122",
    "long": "108.949"
  },
  "KT": {
    "name": "Kon Tum",
    "capital": "Hon Rom",
    "lat": "14.362",
    "long": "107.999"
  },
  "QN": {
    "name": "Quang Ngai",
    "capital": "Bac Phan",
    "lat": "15.158",
    "long": "108.846"
  },
  "QN": {
    "name": "Quang Nam",
    "capital": "Cam Dao",
    "lat": "15.572",
    "long": "108.470"
  },
  "DN": {
    "name": "Da nang",
    "capital": "Ca Phe",
    "lat": "16.074",
    "long": "108.223"
  },
  "H": {
    "name": "Hue",
    "capital": "Che",
    "lat": "16.461",
    "long": "107.595"
  },
  "QT": {
    "name": "Quang Tri",
    "capital": "Banh Can",
    "lat": "16.794",
    "long": "106.963"
  },
  "QB": {
    "name": "Quang Binh ",
    "capital": "My Dinh",
    "lat": "17.531",
    "long": "106.294"
  },
  "HT": {
    "name": "Ha Tinh",
    "capital": "Banh Pia",
    "lat": "18.333",
    "long": "105.900"
  },
  "NA": {
    "name": "Nghe An",
    "capital": "Thanh An",
    "lat": "19.236",
    "long": "104.945"
  },
  "TH": {
    "name": "Thanh Hoa",
    "capital": "Cua ",
    "lat": "19.807",
    "long": "105.775"
  },
  "NB": {
    "name": "Ninh Binh",
    "capital": "Hoa",
    "lat": "20.258",
    "long": "105.973"
  },
  "ND": {
    "name": "Nam Dinh",
    "capital": "Pho",
    "lat": "20.416",
    "long": "106.166"
  },
  "TB": {
    "name": "Thai Binh",
    "capital": "Son Tung",
    "lat": "20.451",
    "long": "106.347"
  },
  "HN": {
    "name": "Ha Nam",
    "capital": "Chao Ga",
    "lat": "20.546",
    "long": "105.912"
  },
  "HN": {
    "name": "Ha Noi",
    "capital": "Ho Guom",
    "lat": "21.028",
    "long": "105.854"
  },
  "VP": {
    "name": "Vinh Phuc",
    "capital": "Bam",
    "lat": "21.360",
    "long": "105.547"
  },
  "HY": {
    "name": "Hung Yen",
    "capital": "Truong",
    "lat": "20.646",
    "long": "106.051"
  },
  "BN": {
    "name": "Bac Ninh",
    "capital": "Ba Vi",
    "lat": "21.185",
    "long": "106.075"
  },
  "HD": {
    "name": "Hai Duong",
    "capital": "Dinh Binh",
    "lat": "20.940",
    "long": "106.333"
  },
  "HP": {
    "name": "Hai Phong",
    "capital": "Hao Hao",
    "lat": "20.864",
    "long": "106.683"
  },
  "QN": {
    "name": "Quang Ninh",
    "capital": "Chua Cay",
    "lat": "21.243",
    "long": "107.281"
  },
  "BG": {
    "name": "Bac Giang",
    "capital": "Tom Vien",
    "lat": "21.280",
    "long": "106.195"
  },
  "LS": {
    "name": "Lang Son",
    "capital": "Ca Chua",
    "lat": "21.852",
    "long": "106.761"
  },
  "CB": {
    "name": "Cao Bang",
    "capital": "Banh Xeo",
    "lat": "22.679",
    "long": "106.260"
  },
  "BK": {
    "name": "Bac Kan",
    "capital": "Banh Beo",
    "lat": "22.132",
    "long": "105.844"
  },
  "TN": {
    "name": "Thai Nguyen",
    "capital": "Banh Canh",
    "lat": "21.594",
    "long": "105.848"
  },
  "TQ": {
    "name": "Tuyen Quang",
    "capital": "Banh Cuon",
    "lat": "22.172",
    "long": "105.313"
  },
  "HG": {
    "name": "Ha Giang",
    "capital": "Banh Da",
    "lat": "22.823",
    "long": "104.983"
  },
  "YB": {
    "name": "Yen Bai",
    "capital": "Banh Hanh",
    "lat": "21.716",
    "long": "104.898"
  },
  "LC": {
    "name": "Lao Cai",
    "capital": "Banh Trang",
    "lat": "22.476",
    "long": "103.973"
  },
  "LC": {
    "name": "Lai Chau",
    "capital": "Banh Bo",
    "lat": "22.390",
    "long": "103.496"
  },
  "DB": {
    "name": "Dien Bien",
    "capital": "Banh Tet",
    "lat": "21.496",
    "long": "103.102"
  },
  "SL": {
    "name": "Son La",
    "capital": "Banh Tieu",
    "lat": "21.325",
    "long": " 103.918"
  },
  "PT": {
    "name": "Phu Tho",
    "capital": "Banh Ca",
    "lat": "21.318",
    "long": "105.116"
  },
  "HB": {
    "name": "Hoa Binh",
    "capital": "Banh Heo",
    "lat": "20.890",
    "long": "105.376"
  },
  "LA": {
    "name": "Long An",
    "capital": "Banh He",
    "lat": " 10.695",
    "long": "106.243"
  },
  "TG": {
    "name": "Tien Giang",
    "capital": "Banh Gio",
    "lat": "10.402",
    "long": "106.307"
  },
  "BT": {
    "name": "Ben Tre",
    "capital": "Banh Bao",
    "lat": "10.230",
    "long": "106.370"
  },
  "VL": {
    "name": "Vinh Long",
    "capital": "Banh My Trung",
    "lat": "10.250",
    "long": "105.970"
  },
  "TV": {
    "name": "Tra Vinh",
    "capital": "Banh Trung Thu",
    "lat": "9.940",
    "long": "106.340"
  },
  "HG": {
    "name": "Hau Giang",
    "capital": "Pho Bo",
    "lat": "9.784",
    "long": "105.624"
  },
  "ST": {
    "name": "Soc Trang",
    "capital": "Pho Ga",
    "lat": "9.620",
    "long": "105.970"
  },
  "BL": {
    "name": "Bac Lieu",
    "capital": "Pho Long",
    "lat": "9.300",
    "long": "105.720"
  },
  "CM": {
    "name": "Ca Mau",
    "capital": "Pho Oc",
    "lat": "9.180",
    "long": "105.150"
  },
  "KG": {
    "name": "Kien Giang",
    "capital": "My Quang",
    "lat": "10.020",
    "long": "105.080"
  },
  "CT": {
    "name": "Can Tho",
    "capital": "Con meo",
    "lat": "10.027",
    "long": "105.769"
  },
  "AG": {
    "name": "An Giang",
    "capital": "Cat Ba",
    "lat": "10.511",
    "long": "105.180"
  },
  "DT": {
    "name": "Dong Thap",
    "capital": "Muoi",
    "lat": "10.314",
    "long": "105.746"
  }
}
